<?xml version="1.0" encoding="UTF-8" ?>
<rguide ver="2.0"><w>2000</w><h>1800</h><line><lname>Line 1</lname><color>c1423d</color><station><staid>50</staid><name>PINGGUO\YUAN</name><sname>PINGGUOYUAN 苹果园</sname><mapx>57.2</mapx><mapy>912.9</mapy><pos>1</pos><lat>39.926654</lat><lng>116.177781</lng></station><station><staid>51</staid><name>GUCHENG</name><sname>GUCHENG 古城路</sname><mapx>88.3</mapx><mapy>1001.4</mapy><pos>3</pos><lat>39.907432</lat><lng>116.19072</lng></station><station><staid>52</staid><name>BAJIAO \Amusement \Park</name><sname>BAJIAO Amusement Park 八角游乐园</sname><mapx>154.6</mapx><mapy>1001.4</mapy><pos>7</pos><lat>39.907445</lat><lng>116.212687</lng></station><station><staid>53</staid><name>BABAOSHAN</name><sname>BABAOSHAN 八宝山</sname><mapx>218.9</mapx><mapy>1001.4</mapy><pos>3</pos><lat>39.907448</lat><lng>116.235716</lng></station><station><staid>54</staid><name>YUQUANLU</name><sname>YUQUANLU 玉泉路</sname><mapx>283.2</mapx><mapy>1001.4</mapy><pos>7</pos><lat>39.907414</lat><lng>116.25299</lng></station><station><staid>55</staid><name>WUKESONG</name><sname>WUKESONG 五棵松</sname><mapx>349.5</mapx><mapy>1001.4</mapy><pos>3</pos><lat>39.907456</lat><lng>116.273987</lng></station><station><staid>56</staid><name>WANSHOULU</name><sname>WANSHOULU 万寿路</sname><mapx>413.8</mapx><mapy>1001.4</mapy><pos>7</pos><lat>39.907474</lat><lng>116.29508</lng></station><station><staid>57</staid><name>GONGZHU\FEN</name><sname>GONGZHUFEN 公主坟</sname><mapx>476</mapx><mapy>1001.4</mapy><pos>3</pos><lat>39.907456</lat><lng>116.310389</lng></station><station><staid>58</staid><name>Military \Museum</name><sname>Military Museum 军事博物馆</sname><mapx>556.9</mapx><mapy>1001.4</mapy><pos>7</pos><lat>39.907449</lat><lng>116.323897</lng></station><station><staid>59</staid><name>MUXIDI</name><sname>MUXIDI 木樨地</sname><mapx>608.7</mapx><mapy>1001.4</mapy><pos>3</pos><lat>39.907373</lat><lng>116.337822</lng></station><station><staid>60</staid><name>NANLI\SHILU</name><sname>NANLISHILU 南礼士路</sname><mapx>656.4</mapx><mapy>1001.4</mapy><pos>7</pos><lat>39.907229</lat><lng>116.352495</lng></station><station><staid>61</staid><name>FUXING\MEN</name><sname>FUXINGMEN 复兴门</sname><mapx>712.4</mapx><mapy>1001.4</mapy><pos>4</pos><lat>39.907262</lat><lng>116.356575</lng></station><station><staid>33</staid><name>XIDAN</name><sname>XIDAN 西单</sname><mapx>785</mapx><mapy>1001.4</mapy><pos>4</pos><lat>39.907421</lat><lng>116.37426</lng></station><station><staid>62</staid><name>TIAN'ANMEN \West</name><sname>TIAN'ANMEN West 天安门西</sname><mapx>867.9</mapx><mapy>1001.4</mapy><pos>3</pos><lat>39.907495</lat><lng>116.391715</lng></station><station><staid>63</staid><name>TIAN'ANMEN \East</name><sname>TIAN'ANMEN East 天安门东</sname><mapx>971.6</mapx><mapy>1001.4</mapy><pos>3</pos><lat>39.907792</lat><lng>116.401565</lng></station><station><staid>64</staid><name>WANGFU\JING</name><sname>WANGFUJING 王府井</sname><mapx>1015.1</mapx><mapy>1001.4</mapy><pos>7</pos><lat>39.908065</lat><lng>116.411502</lng></station><station><staid>65</staid><name>DONG\DAN</name><sname>DONGDAN 东单</sname><mapx>1066.9</mapx><mapy>1001.4</mapy><pos>2</pos><lat>39.908298</lat><lng>116.420019</lng></station><station><staid>66</staid><name>JIANGUO\MEN</name><sname>JIANGUOMEN 建国门</sname><mapx>1147.8</mapx><mapy>1001.4</mapy><pos>2</pos><lat>39.908642</lat><lng>116.435842</lng></station><station><staid>67</staid><name>YONG'ANLI</name><sname>YONG'ANLI 永安里</sname><mapx>1218.3</mapx><mapy>1001.4</mapy><pos>7</pos><lat>39.908456</lat><lng>116.450425</lng></station><station><staid>68</staid><name>GUOMAO</name><sname>GUOMAO 国贸</sname><mapx>1284.6</mapx><mapy>1001.4</mapy><pos>2</pos><lat>39.909253</lat><lng>116.46184</lng></station><station><staid>69</staid><name>DAWANGLU</name><sname>DAWANGLU 大望路</sname><mapx>1344.8</mapx><mapy>1001.4</mapy><pos>7</pos><lat>39.908186</lat><lng>116.476649</lng></station><station><staid>70</staid><name>SIHUI</name><sname>SIHUI 四惠</sname><mapx>1402.8</mapx><mapy>1004.5</mapy><pos>3</pos><lat>39.908671</lat><lng>116.498883</lng></station><station><staid>71</staid><name>SIHUI East</name><sname>SIHUI East 四惠东</sname><mapx>1463</mapx><mapy>1004.5</mapy><pos>7</pos><lat>39.908492</lat><lng>116.516043</lng></station></line><line><lname>Line 2</lname><color>22689b</color><station><staid>160</staid><name>JISHUITAN</name><sname>JISHUITAN 积水潭</sname><mapx>770.4</mapx><mapy>754.5</mapy><pos>7</pos><lat>39.948714</lat><lng>116.37318</lng></station><station><staid>159</staid><name>GULOU\DAJIE</name><sname>GULOU DAJIE 鼓楼大街</sname><mapx>930.1</mapx><mapy>754.5</mapy><pos>3</pos><lat>39.948976</lat><lng>116.393599</lng></station><station><staid>158</staid><name>ANDINGMEN</name><sname>ANDINGMEN 安定门</sname><mapx>988.1</mapx><mapy>754.5</mapy><pos>7</pos><lat>39.949185</lat><lng>116.408266</lng></station><station><staid>105</staid><name>YONGHE\GONG Lama \Temple</name><sname>YONGHEGONG Lama Temple 雍和宫</sname><mapx>1066.9</mapx><mapy>754.5</mapy><pos>4</pos><lat>39.949337</lat><lng>116.416989</lng></station><station><staid>128</staid><name>DONGZHI\MEN</name><sname>DONGZHIMEN 东直门</sname><mapx>1147.8</mapx><mapy>811.1</mapy><pos>2</pos><lat>39.941189</lat><lng>116.433629</lng></station><station><staid>157</staid><name>DONGSI \SHITIAO</name><sname>DONGSI SHITIAO 东四十条</sname><mapx>1147.8</mapx><mapy>886.2</mapy><pos>1</pos><lat>39.933664</lat><lng>116.434217</lng></station><station><staid>156</staid><name>CHAOYANG\MEN</name><sname>CHAOYANGMEN 朝阳门</sname><mapx>1147.8</mapx><mapy>933.5</mapy><pos>1</pos><lat>39.924593</lat><lng>116.434638</lng></station><station><staid>66</staid><name>JIANGUO\MEN</name><sname>JIANGUOMEN 建国门</sname><mapx>1147.8</mapx><mapy>1001.4</mapy><pos>2</pos><lat>39.908642</lat><lng>116.435842</lng></station><station><staid>155</staid><name>Beijing \Railway Station</name><sname>Beijing Railway Station 北京站</sname><mapx>1129.1</mapx><mapy>1056.9</mapy><pos>2</pos><lat>39.905066</lat><lng>116.427174</lng></station><station><staid>110</staid><name>CHONGWEN\MEN</name><sname>CHONGWENMEN 崇文门</sname><mapx>1066.9</mapx><mapy>1075.5</mapy><pos>4</pos><lat>39.901028</lat><lng>116.417369</lng></station><station><staid>154</staid><name>QIAN\MEN</name><sname>QIANMEN 前门</sname><mapx>930.1</mapx><mapy>1075.5</mapy><pos>3</pos><lat>39.900133</lat><lng>116.397957</lng></station><station><staid>153</staid><name>HEPINGMEN</name><sname>HEPINGMEN 和平门</sname><mapx>859.6</mapx><mapy>1075.5</mapy><pos>7</pos><lat>39.900081</lat><lng>116.384196</lng></station><station><staid>32</staid><name>XUANWU\MEN</name><sname>XUANWUMEN 宣武门</sname><mapx>785</mapx><mapy>1075.5</mapy><pos>2</pos><lat>39.899773</lat><lng>116.374275</lng></station><station><staid>152</staid><name>CHANGCHUN\JIE</name><sname>CHANGCHUNJIE 长椿街</sname><mapx>722.7</mapx><mapy>1065.2</mapy><pos>4</pos><lat>39.899257</lat><lng>116.363353</lng></station><station><staid>61</staid><name>FUXING\MEN</name><sname>FUXINGMEN 复兴门</sname><mapx>712.4</mapx><mapy>1001.4</mapy><pos>4</pos><lat>39.907262</lat><lng>116.356575</lng></station><station><staid>151</staid><name>FUCHENG\MEN</name><sname>FUCHENGMEN 阜成门</sname><mapx>712.4</mapx><mapy>933.5</mapy><pos>5</pos><lat>39.923501</lat><lng>116.356012</lng></station><station><staid>150</staid><name>CHEGONG\ZHUANG</name><sname>CHEGONGZHUANG 车公庄</sname><mapx>712.4</mapx><mapy>869.7</mapy><pos>5</pos><lat>39.932354</lat><lng>116.355726</lng></station><station><staid>38</staid><name>XIZHIMEN</name><sname>XIZHIMEN 西直门</sname><mapx>712.4</mapx><mapy>812.1</mapy><pos>4</pos><lat>39.940743</lat><lng>116.355422</lng></station></line><line><lname>Line 4/Daxing</lname><color>009098</color><station><staid>49</staid><name>ANHEQIAO \North</name><sname>ANHEQIAO North 安河桥北</sname><mapx>293.5</mapx><mapy>482.9</mapy><pos>3</pos><lat>40.011898</lat><lng>116.270112</lng></station><station><staid>48</staid><name>BEIGONG\MEN</name><sname>BEIGONGMEN 北宫门</sname><mapx>364</mapx><mapy>482.9</mapy><pos>7</pos><lat>40.002628</lat><lng>116.275522</lng></station><station><staid>47</staid><name>XIYUAN</name><sname>XIYUAN 西苑</sname><mapx>424.2</mapx><mapy>482.9</mapy><pos>3</pos><lat>39.998513</lat><lng>116.290446</lng></station><station><staid>46</staid><name>YUANMING\YUAN Park</name><sname>YUANMINGYUAN Park 圆明园</sname><mapx>498.8</mapx><mapy>482.9</mapy><pos>7</pos><lat>39.999543</lat><lng>116.309685</lng></station><station><staid>45</staid><name>East Gate \of PKU</name><sname>East Gate of Peking University 北京大学东门</sname><mapx>556.9</mapx><mapy>522</mapy><pos>5</pos><lat>39.99213</lat><lng>116.315789</lng></station><station><staid>44</staid><name>ZHONGGUAN\CUN</name><sname>ZHONGGUANCUN 中关村</sname><mapx>556.9</mapx><mapy>550.8</mapy><pos>1</pos><lat>39.98391</lat><lng>116.316488</lng></station><station><staid>43</staid><name>HAIDIAN \HUANGZHUANG</name><sname>HAIDIANHUANGZHUANG 海淀黄庄</sname><mapx>556.9</mapx><mapy>594</mapy><pos>4</pos><lat>39.976002</lat><lng>116.317582</lng></station><station><staid>42</staid><name>RENMIN \University</name><sname>RENMIN University 人民大学</sname><mapx>556.9</mapx><mapy>666</mapy><pos>5</pos><lat>39.966916</lat><lng>116.321223</lng></station><station><staid>41</staid><name>WEIGONG\CUN</name><sname>WEIGONGCUN 魏公村</sname><mapx>556.9</mapx><mapy>717.5</mapy><pos>5</pos><lat>39.958096</lat><lng>116.323074</lng></station><station><staid>40</staid><name>National \Library</name><sname>National Library 国家图书馆</sname><mapx>556.9</mapx><mapy>777.1</mapy><pos>5</pos><lat>39.943211</lat><lng>116.325153</lng></station><station><staid>39</staid><name>Beijing Zoo</name><sname>Beijing Zoo 动物园</sname><mapx>633.6</mapx><mapy>812.1</mapy><pos>7</pos><lat>39.938365</lat><lng>116.34053</lng></station><station><staid>38</staid><name>XIZHIMEN</name><sname>XIZHIMEN 西直门</sname><mapx>712.4</mapx><mapy>812.1</mapy><pos>4</pos><lat>39.940743</lat><lng>116.355422</lng></station><station><staid>37</staid><name>XINJIEKOU</name><sname>XINJIEKOU 新街口</sname><mapx>751.8</mapx><mapy>812.1</mapy><pos>8</pos><lat>39.940602</lat><lng>116.367671</lng></station><station><staid>36</staid><name>PING'ANLI</name><sname>PING'ANLI 平安里</sname><mapx>785</mapx><mapy>853.3</mapy><pos>1</pos><lat>39.933788</lat><lng>116.373014</lng></station><station><staid>35</staid><name>XISI</name><sname>XISI 西四</sname><mapx>785</mapx><mapy>902.6</mapy><pos>1</pos><lat>39.924223</lat><lng>116.373395</lng></station><station><staid>34</staid><name>LINGJING \Hutong</name><sname>LINGJING Hutong 灵境胡同</sname><mapx>785</mapx><mapy>945.8</mapy><pos>1</pos><lat>39.916092</lat><lng>116.373741</lng></station><station><staid>33</staid><name>XIDAN</name><sname>XIDAN 西单</sname><mapx>785</mapx><mapy>1001.4</mapy><pos>4</pos><lat>39.907421</lat><lng>116.37426</lng></station><station><staid>32</staid><name>XUANWU\MEN</name><sname>XUANWUMEN 宣武门</sname><mapx>785</mapx><mapy>1075.5</mapy><pos>2</pos><lat>39.899773</lat><lng>116.374275</lng></station><station><staid>31</staid><name>CAISHIKOU</name><sname>CAISHIKOU 菜市口</sname><mapx>785</mapx><mapy>1133.1</mapy><pos>1</pos><lat>39.889305</lat><lng>116.374428</lng></station><station><staid>30</staid><name>TAORAN\TING</name><sname>TAORANTING 陶然亭</sname><mapx>785</mapx><mapy>1170.1</mapy><pos>5</pos><lat>39.87859</lat><lng>116.37439</lng></station><station><staid>29</staid><name>Beijing South \Railway \Station</name><sname>Beijing South Railway Station 北京南站</sname><mapx>785</mapx><mapy>1211.2</mapy><pos>1</pos><lat>39.865166</lat><lng>116.378914</lng></station><station><staid>28</staid><name>MAJIAPU</name><sname>MAJIAPU 马家堡</sname><mapx>785</mapx><mapy>1248.3</mapy><pos>5</pos><lat>39.853333</lat><lng>116.371361</lng></station><station><staid>27</staid><name>JIAOMEN \West</name><sname>JIAOMEN West 角门西</sname><mapx>785</mapx><mapy>1287.4</mapy><pos>1</pos><lat>39.845551</lat><lng>116.371109</lng></station><station><staid>26</staid><name>GONGYI\XIQIAO</name><sname>GONGYIXIQIAO 公益西桥</sname><mapx>785</mapx><mapy>1328.5</mapy><pos>5</pos><lat>39.83588</lat><lng>116.370781</lng></station><station><staid>82</staid><name>XIN'GONG</name><sname>XIN'GONG 新宫</sname><mapx>785</mapx><mapy>1369.7</mapy><pos>1</pos><lat>39.812258</lat><lng>116.365588</lng></station><station><staid>81</staid><name>XIHONGMEN</name><sname>XIHONGMEN 西红门</sname><mapx>695.8</mapx><mapy>1435.5</mapy><pos>1</pos><lat>39.789631</lat><lng>116.328715</lng></station><station><staid>80</staid><name>GAOMIDIAN \North</name><sname>GAOMIDIAN North 高米店北</sname><mapx>695.8</mapx><mapy>1470.5</mapy><pos>5</pos><lat>39.773564</lat><lng>116.330805</lng></station><station><staid>79</staid><name>GAOMIDIAN \South</name><sname>GAOMIDIAN South 高米店南</sname><mapx>695.8</mapx><mapy>1503.4</mapy><pos>1</pos><lat>39.763361</lat><lng>116.331527</lng></station><station><staid>78</staid><name>ZAOYUAN</name><sname>ZAOYUAN 枣园</sname><mapx>695.8</mapx><mapy>1536.3</mapy><pos>5</pos><lat>39.753455</lat><lng>116.332262</lng></station><station><staid>77</staid><name>QINGYUAN\LU</name><sname>QINGYUANLU 清源路</sname><mapx>695.8</mapx><mapy>1569.2</mapy><pos>1</pos><lat>39.742732</lat><lng>116.332504</lng></station><station><staid>76</staid><name>HUANGCUN\XIDAJIE</name><sname>HUANGCUNXIDAJIE 黄村西大街</sname><mapx>695.8</mapx><mapy>1604.2</mapy><pos>5</pos><lat>39.731771</lat><lng>116.332625</lng></station><station><staid>75</staid><name>HUANGCUN \Railway \Station</name><sname>HUANGCUN Railway Station 黄村火车站</sname><mapx>695.8</mapx><mapy>1637.1</mapy><pos>1</pos><lat>39.722998</lat><lng>116.332614</lng></station><station><staid>74</staid><name>YIHEZHUANG</name><sname>YIHEZHUANG 义和庄</sname><mapx>695.8</mapx><mapy>1672.1</mapy><pos>5</pos><lat>39.711716</lat><lng>116.318724</lng></station><station><staid>73</staid><name>Biomedical \Base</name><sname>Biomedical Base 生物医药基地</sname><mapx>695.8</mapx><mapy>1705</mapy><pos>1</pos><lat>39.687056</lat><lng>116.322324</lng></station><station><staid>72</staid><name>TIAN'GONG\YUAN</name><sname>TIAN'GONGYUAN 天宫院</sname><mapx>695.8</mapx><mapy>1740</mapy><pos>5</pos><lat>39.670227</lat><lng>116.319807</lng></station></line><line><lname>Line 5</lname><color>a43287</color><station><staid>94</staid><name>TIANTONG\YUAN North</name><sname>TIANTONGYUAN North 天通苑北</sname><mapx>1066.9</mapx><mapy>213.4</mapy><pos>1</pos><lat>40.083388</lat><lng>116.412989</lng></station><station><staid>95</staid><name>TIANTONG\YUAN</name><sname>TIANTONGYUAN 天通苑</sname><mapx>1066.9</mapx><mapy>252.5</mapy><pos>1</pos><lat>40.075398</lat><lng>116.413144</lng></station><station><staid>96</staid><name>TIANTONG\YUAN South</name><sname>TIANTONGYUAN South 天通苑南</sname><mapx>1066.9</mapx><mapy>295.7</mapy><pos>1</pos><lat>40.066369</lat><lng>116.412944</lng></station><station><staid>97</staid><name>LISHUIQIAO</name><sname>LISHUIQIAO 立水桥</sname><mapx>1066.9</mapx><mapy>347.1</mapy><pos>1</pos><lat>40.053236</lat><lng>116.41286</lng></station><station><staid>98</staid><name>LISHUIQIAO \South</name><sname>LISHUIQIAO South 立水桥南</sname><mapx>1066.9</mapx><mapy>404.7</mapy><pos>5</pos><lat>40.041868</lat><lng>116.414498</lng></station><station><staid>99</staid><name>BEIYUANLU \North</name><sname>BEIYUANLU North 北苑路北</sname><mapx>1066.9</mapx><mapy>445.9</mapy><pos>5</pos><lat>40.030583</lat><lng>116.418087</lng></station><station><staid>100</staid><name>DATUNLU\East</name><sname>DATUNLU East 大屯路东</sname><mapx>1066.9</mapx><mapy>489.1</mapy><pos>5</pos><lat>40.003843</lat><lng>116.417394</lng></station><station><staid>101</staid><name>HUIXINXIJIE \BEIKOU</name><sname>HUIXINXIJIE BEIKOU 惠新西街北口</sname><mapx>1066.9</mapx><mapy>532.3</mapy><pos>5</pos><lat>39.987821</lat><lng>116.417046</lng></station><station><staid>102</staid><name>HUIXINXIJIE \NANKOU</name><sname>HUIXINXIJIE NANKOU 惠新西街南口</sname><mapx>1066.9</mapx><mapy>594</mapy><pos>8</pos><lat>39.977127</lat><lng>116.417593</lng></station><station><staid>103</staid><name>HEPINGXIQIAO</name><sname>HEPINGXIQIAO 和平西桥</sname><mapx>1066.9</mapx><mapy>649.6</mapy><pos>5</pos><lat>39.968546</lat><lng>116.417975</lng></station><station><staid>104</staid><name>HEPINGLI \BEIJIE</name><sname>HEPINGLI BEIJIE 和平里北街</sname><mapx>1066.9</mapx><mapy>694.8</mapy><pos>5</pos><lat>39.959347</lat><lng>116.418302</lng></station><station><staid>105</staid><name>YONGHE\GONG Lama \Temple</name><sname>YONGHEGONG Lama Temple 雍和宫</sname><mapx>1066.9</mapx><mapy>754.5</mapy><pos>4</pos><lat>39.949337</lat><lng>116.416989</lng></station><station><staid>106</staid><name>BEIXIN\QIAO</name><sname>BEIXINQIAO 北新桥</sname><mapx>1066.9</mapx><mapy>818.3</mapy><pos>1</pos><lat>39.941004</lat><lng>116.416801</lng></station><station><staid>107</staid><name>ZHANGZI\ZHONGLU</name><sname>ZHANGZIZHONGLU 张自忠路</sname><mapx>1066.9</mapx><mapy>859.4</mapy><pos>5</pos><lat>39.933665</lat><lng>116.417153</lng></station><station><staid>108</staid><name>DONGSI</name><sname>DONGSI 东四</sname><mapx>1066.9</mapx><mapy>902.6</mapy><pos>5</pos><lat>39.92437</lat><lng>116.417493</lng></station><station><staid>109</staid><name>DENG\SHIKOU</name><sname>DENGSHIKOU 灯市口</sname><mapx>1066.9</mapx><mapy>947.9</mapy><pos>1</pos><lat>39.91729</lat><lng>116.417717</lng></station><station><staid>65</staid><name>DONG\DAN</name><sname>DONGDAN 东单</sname><mapx>1066.9</mapx><mapy>1001.4</mapy><pos>2</pos><lat>39.908298</lat><lng>116.420019</lng></station><station><staid>110</staid><name>CHONGWEN\MEN</name><sname>CHONGWENMEN 崇文门</sname><mapx>1066.9</mapx><mapy>1075.5</mapy><pos>4</pos><lat>39.901028</lat><lng>116.417369</lng></station><station><staid>111</staid><name>CIQIKOU</name><sname>CIQIKOU 磁器口</sname><mapx>1066.9</mapx><mapy>1133.1</mapy><pos>1</pos><lat>39.893125</lat><lng>116.418841</lng></station><station><staid>112</staid><name>TIANTAN\DONGMEN</name><sname>TIANTANDONGMEN 天坛东门</sname><mapx>1066.9</mapx><mapy>1172.2</mapy><pos>5</pos><lat>39.883065</lat><lng>116.420827</lng></station><station><staid>113</staid><name>PUHUANGYU</name><sname>PUHUANGYU 蒲黄榆</sname><mapx>1066.9</mapx><mapy>1211.2</mapy><pos>1</pos><lat>39.865685</lat><lng>116.421661</lng></station><station><staid>114</staid><name>LIUJIAYAO</name><sname>LIUJIAYAO 刘家窑</sname><mapx>1066.9</mapx><mapy>1250.3</mapy><pos>5</pos><lat>39.857647</lat><lng>116.422124</lng></station><station><staid>115</staid><name>SONGJIA\ZHUANG</name><sname>SONGJIAZHUANG 宋家庄</sname><mapx>1066.9</mapx><mapy>1305.9</mapy><pos>5</pos><lat>39.847277</lat><lng>116.428441</lng></station></line><line><lname>Line 8</lname><color>00a775</color><station><staid>136</staid><name>BEITU\CHENG</name><sname>BEITUCHENG 北土城</sname><mapx>930.1</mapx><mapy>594</mapy><pos>8</pos><lat>39.976908</lat><lng>116.394294</lng></station><station><staid>149</staid><name>Olympic \Sports Center</name><sname>Olympic Sports Center 奥体中心</sname><mapx>930.1</mapx><mapy>532.3</mapy><pos>5</pos><lat>39.985555</lat><lng>116.393924</lng></station><station><staid>148</staid><name>Olympic \Green</name><sname>Olympic Green 奥林匹克公园</sname><mapx>930.1</mapx><mapy>491.1</mapy><pos>5</pos><lat>40.000264</lat><lng>116.393286</lng></station><station><staid>147</staid><name>South Gate of \Forest Park</name><sname>South Gate of Forest Park 森林公园南门</sname><mapx>930.1</mapx><mapy>450</mapy><pos>5</pos><lat>40.009992</lat><lng>116.392855</lng></station><station><staid>1689</staid><name>LINCUI\QIAO</name><sname>LINCUIQIAO 林萃桥</sname><mapx>899</mapx><mapy>415</mapy><pos>8</pos><lat>40.022512</lat><lng>116.373099</lng></station><station><staid>1690</staid><name>YONGTAI\ZHUANG</name><sname>YONGTAIZHUANG 永泰庄</sname><mapx>865.8</mapx><mapy>380</mapy><pos>5</pos><lat>40.037505</lat><lng>116.354656</lng></station><station><staid>1691</staid><name>XIXIAOKOU</name><sname>XIXIAOKOU 西小口</sname><mapx>865.8</mapx><mapy>347.1</mapy><pos>1</pos><lat>40.047033</lat><lng>116.351438</lng></station><station><staid>1692</staid><name>YUXIN</name><sname>YUXIN 育新</sname><mapx>865.8</mapx><mapy>312.2</mapy><pos>5</pos><lat>40.060468</lat><lng>116.347232</lng></station><station><staid>123</staid><name>HUOYING</name><sname>HUOYING 霍营</sname><mapx>865.8</mapx><mapy>279.2</mapy><pos>8</pos><lat>40.070657</lat><lng>116.361215</lng></station><station><staid>1693</staid><name>HUILONG\GUAN DONG\DAJIE</name><sname>HUILONGGUAN DONGDAJIE 回龙观东大街</sname><mapx>865.8</mapx><mapy>223.7</mapy><pos>7</pos><lat>40.080928</lat><lng>116.363325</lng></station></line><line><lname>Line 9</lname><color>87d300</color><station><staid>1695</staid><name>Beijing West \Railway \Station</name><sname>Beijing West Railway Station 北京西站</sname><mapx>556.9</mapx><mapy>1104.3</mapy><pos>7</pos><lat>39.894329</lat><lng>116.321204</lng></station><station><staid>1696</staid><name>LIULIQIAO \East</name><sname>LIULIQIAO East 六里桥东</sname><mapx>517.5</mapx><mapy>1137.2</mapy><pos>2</pos><lat>39.886146</lat><lng>116.313887</lng></station><station><staid>1697</staid><name>LIULIQIAO</name><sname>LIULIQIAO 六里桥</sname><mapx>476</mapx><mapy>1170.1</mapy><pos>6</pos><lat>39.880745</lat><lng>116.302621</lng></station><station><staid>1698</staid><name>QILIZHUANG</name><sname>QILIZHUANG 七里庄</sname><mapx>444.9</mapx><mapy>1211.2</mapy><pos>1</pos><lat>39.867596</lat><lng>116.294274</lng></station><station><staid>1699</staid><name>FENGTAI\DONGDAJIE</name><sname>FENGTAIDONGDAJIE 丰台东大街</sname><mapx>444.9</mapx><mapy>1258.6</mapy><pos>5</pos><lat>39.85451</lat><lng>116.293781</lng></station><station><staid>1700</staid><name>FENGTAI\NANLU</name><sname>FENGTAINANLU 丰台南路</sname><mapx>444.9</mapx><mapy>1301.8</mapy><pos>1</pos><lat>39.841232</lat><lng>116.296098</lng></station><station><staid>1701</staid><name>KEYILU</name><sname>KEYILU 科怡路</sname><mapx>444.9</mapx><mapy>1345</mapy><pos>5</pos><lat>39.832227</lat><lng>116.297643</lng></station><station><staid>1702</staid><name>FENGTAI \Science Park</name><sname>FENGTAI Science Park 丰台科技园</sname><mapx>444.9</mapx><mapy>1390.2</mapy><pos>1</pos><lat>39.825166</lat><lng>116.297343</lng></station><station><staid>1703</staid><name>GUOGONG\ZHUANG</name><sname>GUOGONGZHUANG 郭公庄</sname><mapx>444.9</mapx><mapy>1435.5</mapy><pos>5</pos><lat>39.814354</lat><lng>116.302128</lng></station></line><line><lname>Line 10</lname><color>00a0c0</color><station><staid>130</staid><name>BAGOU</name><sname>BAGOU 巴沟</sname><mapx>388.9</mapx><mapy>594</mapy><pos>3</pos><lat>39.974167</lat><lng>116.292818</lng></station><station><staid>131</staid><name>SUZHOUJIE</name><sname>SUZHOUJIE 苏州街</sname><mapx>455.3</mapx><mapy>594</mapy><pos>7</pos><lat>39.975638</lat><lng>116.30627</lng></station><station><staid>43</staid><name>HAIDIAN \HUANGZHUANG</name><sname>HAIDIANHUANGZHUANG 海淀黄庄</sname><mapx>556.9</mapx><mapy>594</mapy><pos>4</pos><lat>39.976002</lat><lng>116.317582</lng></station><station><staid>132</staid><name>ZHICHUNLI</name><sname>ZHICHUNLI 知春里</sname><mapx>629.4</mapx><mapy>594</mapy><pos>3</pos><lat>39.976332</lat><lng>116.32862</lng></station><station><staid>117</staid><name>ZHICHUN\LU</name><sname>ZHICHUNLU 知春路</sname><mapx>702</mapx><mapy>594</mapy><pos>6</pos><lat>39.976487</lat><lng>116.339963</lng></station><station><staid>133</staid><name>XITU\CHENG</name><sname>XITUCHENG 西土城</sname><mapx>753.8</mapx><mapy>594</mapy><pos>3</pos><lat>39.9762</lat><lng>116.353832</lng></station><station><staid>134</staid><name>MUDANYUAN</name><sname>MUDANYUAN 牡丹园</sname><mapx>809.8</mapx><mapy>594</mapy><pos>7</pos><lat>39.976468</lat><lng>116.369935</lng></station><station><staid>135</staid><name>JIANDEMEN</name><sname>JIANDEMEN 健德门</sname><mapx>865.8</mapx><mapy>594</mapy><pos>3</pos><lat>39.976723</lat><lng>116.381353</lng></station><station><staid>136</staid><name>BEITU\CHENG</name><sname>BEITUCHENG 北土城</sname><mapx>930.1</mapx><mapy>594</mapy><pos>8</pos><lat>39.976908</lat><lng>116.394294</lng></station><station><staid>137</staid><name>ANZHENMEN</name><sname>ANZHENMEN 安贞门</sname><mapx>1002.7</mapx><mapy>594</mapy><pos>3</pos><lat>39.977005</lat><lng>116.405954</lng></station><station><staid>102</staid><name>HUIXINXIJIE \NANKOU</name><sname>HUIXINXIJIE NANKOU 惠新西街南口</sname><mapx>1066.9</mapx><mapy>594</mapy><pos>8</pos><lat>39.977127</lat><lng>116.417593</lng></station><station><staid>125</staid><name>SHAOYAO\JU</name><sname>SHAOYAOJU 芍药居</sname><mapx>1158.2</mapx><mapy>594</mapy><pos>4</pos><lat>39.977891</lat><lng>116.436113</lng></station><station><staid>138</staid><name>TAIYANG\GONG</name><sname>TAIYANGGONG 太阳宫</sname><mapx>1207.9</mapx><mapy>594</mapy><pos>7</pos><lat>39.972864</lat><lng>116.447612</lng></station><station><staid>139</staid><name>SANYUANQIAO</name><sname>SANYUANQIAO 三元桥</sname><mapx>1253.5</mapx><mapy>631.1</mapy><pos>1</pos><lat>39.960544</lat><lng>116.456988</lng></station><station><staid>140</staid><name>LIANGMA\QIAO</name><sname>LIANGMAQIAO 亮马桥</sname><mapx>1284.6</mapx><mapy>715.4</mapy><pos>1</pos><lat>39.949383</lat><lng>116.461733</lng></station><station><staid>141</staid><name>Agricultural \Exhibition \Center</name><sname>Agricultural Exhibition Center 农业展览馆</sname><mapx>1284.6</mapx><mapy>781.2</mapy><pos>1</pos><lat>39.941633</lat><lng>116.462115</lng></station><station><staid>142</staid><name>TUANJIEHU</name><sname>TUANJIEHU 团结湖</sname><mapx>1284.6</mapx><mapy>840.9</mapy><pos>1</pos><lat>39.933747</lat><lng>116.461806</lng></station><station><staid>143</staid><name>HUJIALOU</name><sname>HUJIALOU 呼家楼</sname><mapx>1284.6</mapx><mapy>896.5</mapy><pos>1</pos><lat>39.923415</lat><lng>116.461744</lng></station><station><staid>144</staid><name>JINTAI\XIZHAO</name><sname>JINTAIXIZHAO 金台夕照</sname><mapx>1284.6</mapx><mapy>947.9</mapy><pos>1</pos><lat>39.917263</lat><lng>116.461757</lng></station><station><staid>68</staid><name>GUOMAO</name><sname>GUOMAO 国贸</sname><mapx>1284.6</mapx><mapy>1001.4</mapy><pos>2</pos><lat>39.909253</lat><lng>116.46184</lng></station><station><staid>145</staid><name>SHUANGJING</name><sname>SHUANGJING 双井</sname><mapx>1284.6</mapx><mapy>1075.5</mapy><pos>1</pos><lat>39.893528</lat><lng>116.461834</lng></station><station><staid>146</staid><name>JINSONG</name><sname>JINSONG 劲松</sname><mapx>1284.6</mapx><mapy>1161.9</mapy><pos>1</pos><lat>39.884554</lat><lng>116.461237</lng></station></line><line><lname>Line 13</lname><color>f7e234</color><station><staid>38</staid><name>XIZHIMEN</name><sname>XIZHIMEN 西直门</sname><mapx>712.4</mapx><mapy>812.1</mapy><pos>4</pos><lat>39.940743</lat><lng>116.355422</lng></station><station><staid>116</staid><name>DAZHONGSI</name><sname>DAZHONGSI 大钟寺</sname><mapx>702</mapx><mapy>659.9</mapy><pos>5</pos><lat>39.966596</lat><lng>116.345091</lng></station><station><staid>117</staid><name>ZHICHUN\LU</name><sname>ZHICHUNLU 知春路</sname><mapx>702</mapx><mapy>594</mapy><pos>6</pos><lat>39.976487</lat><lng>116.339963</lng></station><station><staid>118</staid><name>WUDAOKOU</name><sname>WUDAOKOU 五道口</sname><mapx>702</mapx><mapy>530.2</mapy><pos>1</pos><lat>39.992898</lat><lng>116.337631</lng></station><station><staid>119</staid><name>SHANGDI</name><sname>SHANGDI 上地</sname><mapx>702</mapx><mapy>413</mapy><pos>5</pos><lat>40.033041</lat><lng>116.319941</lng></station><station><staid>120</staid><name>XIERQI</name><sname>XIERQI 西二旗</sname><mapx>702</mapx><mapy>338.9</mapy><pos>5</pos><lat>40.052303</lat><lng>116.306554</lng></station><station><staid>121</staid><name>LONGZE</name><sname>LONGZE 龙泽</sname><mapx>751.8</mapx><mapy>279.2</mapy><pos>3</pos><lat>40.070804</lat><lng>116.319599</lng></station><station><staid>122</staid><name>HUILONG\GUAN</name><sname>HUILONGGUAN 回龙观</sname><mapx>803.6</mapx><mapy>279.2</mapy><pos>7</pos><lat>40.070547</lat><lng>116.336442</lng></station><station><staid>123</staid><name>HUOYING</name><sname>HUOYING 霍营</sname><mapx>865.8</mapx><mapy>279.2</mapy><pos>8</pos><lat>40.070657</lat><lng>116.361215</lng></station><station><staid>97</staid><name>LISHUIQIAO</name><sname>LISHUIQIAO 立水桥</sname><mapx>1066.9</mapx><mapy>347.1</mapy><pos>1</pos><lat>40.053236</lat><lng>116.41286</lng></station><station><staid>88</staid><name>BEIYUAN</name><sname>BEIYUAN 北苑</sname><mapx>1125</mapx><mapy>404.7</mapy><pos>8</pos><lat>40.043022</lat><lng>116.434561</lng></station><station><staid>124</staid><name>WANG\JING \West</name><sname>WANGJING West 望京西</sname><mapx>1158.2</mapx><mapy>487</mapy><pos>5</pos><lat>39.992881</lat><lng>116.446012</lng></station><station><staid>125</staid><name>SHAOYAO\JU</name><sname>SHAOYAOJU 芍药居</sname><mapx>1158.2</mapx><mapy>594</mapy><pos>4</pos><lat>39.977891</lat><lng>116.436113</lng></station><station><staid>126</staid><name>GUANGXI\MEN</name><sname>GUANGXIMEN 光熙门</sname><mapx>1158.2</mapx><mapy>668.1</mapy><pos>5</pos><lat>39.968286</lat><lng>116.431871</lng></station><station><staid>127</staid><name>LIUFANG</name><sname>LIUFANG 柳芳</sname><mapx>1158.2</mapx><mapy>715.4</mapy><pos>5</pos><lat>39.958239</lat><lng>116.432655</lng></station><station><staid>128</staid><name>DONGZHI\MEN</name><sname>DONGZHIMEN 东直门</sname><mapx>1147.8</mapx><mapy>811.1</mapy><pos>2</pos><lat>39.941189</lat><lng>116.433629</lng></station></line><line><lname>Line 15</lname><color>5a2546</color><station><staid>124</staid><name>WANG\JING \West</name><sname>WANGJING West 望京西</sname><mapx>1158.2</mapx><mapy>487</mapy><pos>5</pos><lat>39.992881</lat><lng>116.446012</lng></station><station><staid>675</staid><name>WANGJING</name><sname>WANGJING 望京</sname><mapx>1205.9</mapx><mapy>487</mapy><pos>3</pos><lat>39.99855</lat><lng>116.470013</lng></station><station><staid>674</staid><name>CUIGE\ZHUANG</name><sname>CUIGEZHUANG 崔各庄</sname><mapx>1317.8</mapx><mapy>437.7</mapy><pos>5</pos><lat>40.022008</lat><lng>116.492714</lng></station><station><staid>673</staid><name>MAQUAN\YING</name><sname>MAQUANYING 马泉营</sname><mapx>1317.8</mapx><mapy>392.4</mapy><pos>5</pos><lat>40.033761</lat><lng>116.503848</lng></station><station><staid>672</staid><name>SUNHE</name><sname>SUNHE 孙河</sname><mapx>1344.8</mapx><mapy>336.8</mapy><pos>6</pos><lat>40.047652</lat><lng>116.535802</lng></station><station><staid>671</staid><name>China Int'l Exposition Center</name><sname>China International Exposition Center 国展</sname><mapx>1388.3</mapx><mapy>293.6</mapy><pos>2</pos><lat>40.07196</lat><lng>116.555457</lng></station><station><staid>670</staid><name>HUALIKAN</name><sname>HUALIKAN 花梨坎</sname><mapx>1433.9</mapx><mapy>248.4</mapy><pos>6</pos><lat>40.083136</lat><lng>116.557269</lng></station><station><staid>669</staid><name>HOUSHAYU</name><sname>HOUSHAYU 后沙峪</sname><mapx>1479.6</mapx><mapy>201.1</mapy><pos>6</pos><lat>40.114135</lat><lng>116.564216</lng></station><station><staid>1764</staid><name>NANFAXIN</name><sname>NANFAXIN 南法信</sname><mapx>1531.4</mapx><mapy>180.5</mapy><pos>7</pos><lat>40.128261</lat><lng>116.609573</lng></station><station><staid>1765</staid><name>SHIMEN</name><sname>SHIMEN 石门</sname><mapx>1593.6</mapx><mapy>180.5</mapy><pos>3</pos><lat>40.129836</lat><lng>116.641545</lng></station><station><staid>1766</staid><name>SHUNYI</name><sname>SHUNYI 顺义</sname><mapx>1655.8</mapx><mapy>180.5</mapy><pos>7</pos><lat>40.129951</lat><lng>116.656952</lng></station><station><staid>1767</staid><name>FENGBO</name><sname>FENGBO 俸伯</sname><mapx>1718</mapx><mapy>180.5</mapy><pos>1</pos><lat>40.132576</lat><lng>116.686306</lng></station></line><line><lname>Batong Line</lname><color>c1423e</color><station><staid>70</staid><name>SIHUI</name><sname>SIHUI 四惠</sname><mapx>1402.8</mapx><mapy>1004.5</mapy><pos>3</pos><lat>39.908671</lat><lng>116.498883</lng></station><station><staid>71</staid><name>SIHUI East</name><sname>SIHUI East 四惠东</sname><mapx>1463</mapx><mapy>1004.5</mapy><pos>7</pos><lat>39.908492</lat><lng>116.516043</lng></station><station><staid>83</staid><name>GAOBEIDIAN</name><sname>GAOBEIDIAN 高碑店</sname><mapx>1531.4</mapx><mapy>1007.6</mapy><pos>3</pos><lat>39.909288</lat><lng>116.532468</lng></station><station><staid>84</staid><name>Communica-\tion University \of China</name><sname>Communication University of China 传媒大学</sname><mapx>1591.5</mapx><mapy>1007.6</mapy><pos>7</pos><lat>39.90916</lat><lng>116.555329</lng></station><station><staid>85</staid><name>SHUANG\QIAO</name><sname>SHUANGQIAO 双桥</sname><mapx>1657.9</mapx><mapy>1007.6</mapy><pos>3</pos><lat>39.910323</lat><lng>116.577028</lng></station><station><staid>86</staid><name>GUAN\ZHUANG</name><sname>GUANZHUANG 管庄</sname><mapx>1728.4</mapx><mapy>1007.6</mapy><pos>7</pos><lat>39.909179</lat><lng>116.599436</lng></station><station><staid>87</staid><name>BALIQIAO</name><sname>BALIQIAO 八里桥</sname><mapx>1782.3</mapx><mapy>1030.2</mapy><pos>8</pos><lat>39.905899</lat><lng>116.618161</lng></station><station><staid>129</staid><name>TONGZHOU \BEIYUAN</name><sname>TONGZHOU BEIYUAN 通州北苑</sname><mapx>1809.2</mapx><mapy>1056.9</mapy><pos>4</pos><lat>39.903646</lat><lng>116.637192</lng></station><station><staid>89</staid><name>GUOYUAN</name><sname>GUOYUAN 果园</sname><mapx>1836.2</mapx><mapy>1083.7</mapy><pos>8</pos><lat>39.893333</lat><lng>116.64643</lng></station><station><staid>90</staid><name>JIUKESHU</name><sname>JIUKESHU 九棵树</sname><mapx>1863.1</mapx><mapy>1110.4</mapy><pos>4</pos><lat>39.89016</lat><lng>116.657585</lng></station><station><staid>91</staid><name>LIYUAN</name><sname>LIYUAN 梨园</sname><mapx>1890.1</mapx><mapy>1137.2</mapy><pos>8</pos><lat>39.883779</lat><lng>116.668443</lng></station><station><staid>92</staid><name>LINHELI</name><sname>LINHELI 临河里</sname><mapx>1917</mapx><mapy>1163.9</mapy><pos>4</pos><lat>39.875435</lat><lng>116.678722</lng></station><station><staid>93</staid><name>TUQIAO</name><sname>TUQIAO 土桥</sname><mapx>1944</mapx><mapy>1190.7</mapy><pos>3</pos><lat>39.871981</lat><lng>116.686439</lng></station></line><line><lname>Changping Line</lname><color>d47daa</color><station><staid>120</staid><name>XIERQI</name><sname>XIERQI 西二旗</sname><mapx>702</mapx><mapy>338.9</mapy><pos>5</pos><lat>40.052303</lat><lng>116.306554</lng></station><station><staid>646</staid><name>Life Science \Park</name><sname>Life Science Park 生命科学园</sname><mapx>708.2</mapx><mapy>254.5</mapy><pos>6</pos><lat>40.094534</lat><lng>116.293879</lng></station><station><staid>645</staid><name>ZHUXIN\ZHUANG</name><sname>ZHUXINZHUANG 朱辛庄</sname><mapx>737.3</mapx><mapy>194.9</mapy><pos>5</pos><lat>40.105746</lat><lng>116.321418</lng></station><station><staid>644</staid><name>GONGHUA\CHENG</name><sname>GONGHUACHENG 巩华城</sname><mapx>706.2</mapx><mapy>137.3</mapy><pos>8</pos><lat>40.131595</lat><lng>116.296815</lng></station><station><staid>885</staid><name>SHAHE</name><sname>SHAHE 沙河</sname><mapx>668.8</mapx><mapy>98.2</mapy><pos>4</pos><lat>40.148327</lat><lng>116.288797</lng></station><station><staid>643</staid><name>SHAHE \Univ. Park</name><sname>SHAHE University Park 沙河高教园</sname><mapx>631.5</mapx><mapy>59.1</mapy><pos>8</pos><lat>40.166835</lat><lng>116.279133</lng></station><station><staid>642</staid><name>NANSHAO</name><sname>NANSHAO 南邵</sname><mapx>594.2</mapx><mapy>20</mapy><pos>5</pos><lat>40.206605</lat><lng>116.288308</lng></station></line><line><lname>Yizhuang Line</lname><color>d61572</color><station><staid>115</staid><name>SONGJIA\ZHUANG</name><sname>SONGJIAZHUANG 宋家庄</sname><mapx>1066.9</mapx><mapy>1305.9</mapy><pos>5</pos><lat>39.847277</lat><lng>116.428441</lng></station><station><staid>647</staid><name>XIAOCUN</name><sname>XIAOCUN 肖村</sname><mapx>1131.2</mapx><mapy>1357.3</mapy><pos>7</pos><lat>39.833225</lat><lng>116.448118</lng></station><station><staid>648</staid><name>XIAOHONG\MEN</name><sname>XIAOHONGMEN 小红门</sname><mapx>1195.5</mapx><mapy>1396.4</mapy><pos>5</pos><lat>39.828037</lat><lng>116.459855</lng></station><station><staid>649</staid><name>JIUGONG</name><sname>JIUGONG 旧宫</sname><mapx>1195.5</mapx><mapy>1449.9</mapy><pos>5</pos><lat>39.807079</lat><lng>116.460881</lng></station><station><staid>650</staid><name>YIZHUANG\QIAO</name><sname>YIZHUANGQIAO 亦庄桥</sname><mapx>1245.3</mapx><mapy>1484.9</mapy><pos>3</pos><lat>39.802853</lat><lng>116.480261</lng></station><station><staid>651</staid><name>YIZHUANG \Culture Park</name><sname>YIZHUANG Culture Park 亦庄文化园</sname><mapx>1315.7</mapx><mapy>1484.9</mapy><pos>7</pos><lat>39.807469</lat><lng>116.491714</lng></station><station><staid>652</staid><name>WANYUANJIE</name><sname>WANYUANJIE 万源街</sname><mapx>1371.7</mapx><mapy>1507.5</mapy><pos>8</pos><lat>39.803651</lat><lng>116.505154</lng></station><station><staid>653</staid><name>RONGJING\DONGJIE</name><sname>RONGJINGDONGJIE 荣京东街</sname><mapx>1417.3</mapx><mapy>1552.8</mapy><pos>4</pos><lat>39.793188</lat><lng>116.513228</lng></station><station><staid>654</staid><name>RONGCHANG\DONGJIE</name><sname>RONGCHANGDONGJIE 荣昌东街</sname><mapx>1463</mapx><mapy>1598</mapy><pos>4</pos><lat>39.782877</lat><lng>116.521299</lng></station><station><staid>655</staid><name>TONGJI\NANLU</name><sname>TONGJINANLU 同济南路</sname><mapx>1518.9</mapx><mapy>1585.7</mapy><pos>2</pos><lat>39.773315</lat><lng>116.540206</lng></station><station><staid>656</staid><name>JINGHAOLU</name><sname>JINGHAOLU 经海路</sname><mapx>1554.2</mapx><mapy>1550.7</mapy><pos>6</pos><lat>39.783919</lat><lng>116.562749</lng></station><station><staid>657</staid><name>CIQU South</name><sname>CIQU South 次渠南</sname><mapx>1587.4</mapx><mapy>1517.8</mapy><pos>2</pos><lat>39.789932</lat><lng>116.571722</lng></station><station><staid>658</staid><name>CIQU</name><sname>CIQU 次渠</sname><mapx>1622.6</mapx><mapy>1482.8</mapy><pos>1</pos><lat>39.803076</lat><lng>116.591737</lng></station></line><line><lname>Fangshan Line</lname><color>d85f26</color><station><staid>1703</staid><name>GUOGONG\ZHUANG</name><sname>GUOGONGZHUANG 郭公庄</sname><mapx>444.9</mapx><mapy>1435.5</mapy><pos>5</pos><lat>39.814354</lat><lng>116.302128</lng></station><station><staid>659</staid><name>DABAOTAI</name><sname>DABAOTAI 大葆台</sname><mapx>411.7</mapx><mapy>1501.3</mapy><pos>2</pos><lat>39.805241</lat><lng>116.28517</lng></station><station><staid>668</staid><name>SU\ZHUANG</name><sname>SUZHUANG 苏庄</sname><mapx>24</mapx><mapy>1731.8</mapy><pos>8</pos><lat>39.723287</lat><lng>116.125287</lng></station><station><staid>667</staid><name>LIANGXIANG\NANGUAN</name><sname>LIANGXIANGNANGUAN 良乡南关</sname><mapx>94.5</mapx><mapy>1731.8</mapy><pos>3</pos><lat>39.723298</lat><lng>116.138422</lng></station><station><staid>666</staid><name>LIANGXIANG \Univ. Town \West</name><sname>LIANGXIANG University Town West 良乡大学城西</sname><mapx>165</mapx><mapy>1731.8</mapy><pos>7</pos><lat>39.723279</lat><lng>116.155448</lng></station><station><staid>665</staid><name>LIANGXIANG \Univ. Town</name><sname>LIANGXIANG University Town 良乡大学城</sname><mapx>235.5</mapx><mapy>1731.8</mapy><pos>3</pos><lat>39.723299</lat><lng>116.174766</lng></station><station><staid>664</staid><name>LIANGXIANG \Univ. Town North</name><sname>LIANGXIANG University Town North 良乡大学城北</sname><mapx>274.9</mapx><mapy>1698.9</mapy><pos>1</pos><lat>39.730277</lat><lng>116.183133</lng></station><station><staid>663</staid><name>GUANGYANG\CHENG</name><sname>GUANGYANGCHENG 广阳城</sname><mapx>274.9</mapx><mapy>1657.7</mapy><pos>1</pos><lat>39.748299</lat><lng>116.184574</lng></station><station><staid>662</staid><name>LIBAFANG</name><sname>LIBAFANG 篱笆房</sname><mapx>274.9</mapx><mapy>1616.6</mapy><pos>5</pos><lat>39.762607</lat><lng>116.187612</lng></station><station><staid>661</staid><name>CHANGYANG</name><sname>CHANGYANG 长阳</sname><mapx>345.4</mapx><mapy>1569.2</mapy><pos>2</pos><lat>39.764047</lat><lng>116.213054</lng></station><station><staid>660</staid><name>DAOTIAN</name><sname>DAOTIAN 稻田</sname><mapx>378.6</mapx><mapy>1536.3</mapy><pos>6</pos><lat>39.79083</lat><lng>116.222156</lng></station></line><line><lname>Airport Express</lname><color>9390b3</color><station><staid>162</staid><name>Terminal 3</name><sname>Terminal 3 3号航站楼</sname><mapx>1487.8</mapx><mapy>452.1</mapy><pos>1</pos><lat>40.052883</lat><lng>116.615801</lng></station><station><staid>163</staid><name>Terminal 2</name><sname>Terminal 2 2号航站楼</sname><mapx>1436</mapx><mapy>398.6</mapy><pos>7</pos><lat>40.079541</lat><lng>116.592751</lng></station><station><staid>139</staid><name>SANYUANQIAO</name><sname>SANYUANQIAO 三元桥</sname><mapx>1253.5</mapx><mapy>631.1</mapy><pos>1</pos><lat>39.960544</lat><lng>116.456988</lng></station><station><staid>128</staid><name>DONGZHI\MEN</name><sname>DONGZHIMEN 东直门</sname><mapx>1147.8</mapx><mapy>811.1</mapy><pos>2</pos><lat>39.941189</lat><lng>116.433629</lng></station></line>
</rguide>